<?xml version="1.0" encoding="utf-8"?><kml xmlns="http://www.opengis.net/kml/2.2"><Document><name></name><Placemark xmlns="http://www.opengis.net/kml/2.2"><name><![CDATA[A. Macdonald Building (Address: 10128 - 105 Avenue)]]></name><Point><coordinates>-113.494301,53.547918</coordinates></Point><description>9c2166b3-0485-4e71-b966-803c3f618c2e</description></Placemark><Placemark xmlns="http://www.opengis.net/kml/2.2"><name><![CDATA[Arlington Apartments (Address: 10524 - 100 Avenue)]]></name><Point><coordinates>-113.501645,53.539056</coordinates></Point><description>08f625a9-9f14-4b7b-9cba-c0c3c577ee2b</description></Placemark><Placemark xmlns="http://www.opengis.net/kml/2.2"><name><![CDATA[Armstrong Block (Address: 10125-10127 - 104 Street)]]></name><Point><coordinates>-113.499019,53.541552</coordinates></Point><description>f976242b-0b8b-449c-9e4c-9d913b3a458b</description></Placemark><Placemark xmlns="http://www.opengis.net/kml/2.2"><name><![CDATA[Balfour Manor (Address: 10139 - 116 Street)]]></name><Point><coordinates>-113.521068,53.541797</coordinates></Point><description>b5d06c17-6d13-4904-8256-f131df585adf</description></Placemark><Placemark xmlns="http://www.opengis.net/kml/2.2"><name><![CDATA[Bard Residence (Address: 10544 - 84 Avenue)]]></name><Point><coordinates>-113.501833,53.520246</coordinates></Point><description>8c12bc2e-0204-47aa-b91d-a7886f8fdb3f</description></Placemark><Placemark xmlns="http://www.opengis.net/kml/2.2"><name><![CDATA[CPR Station (Address: 8101 - Gateway Blvd)]]></name><Point><coordinates>-113.49464,53.517187</coordinates></Point><description>ca441ec5-4bce-414a-bea7-8206424d3808</description></Placemark><Placemark xmlns="http://www.opengis.net/kml/2.2"><name><![CDATA[Canadian Consolidated Rubber Company Warehouse (Address: 10249 - 104 Street)]]></name><Point><coordinates>-113.499044,53.543789</coordinates></Point><description>70de7174-30b3-49ea-8738-9a7d495ad257</description></Placemark><Placemark xmlns="http://www.opengis.net/kml/2.2"><name><![CDATA[Cecil S. Burgess Residence (Address: 10958 - 89 Avenue)]]></name><Point><coordinates>-113.5135,53.524934</coordinates></Point><description>788a77aa-6eb8-467c-9157-dbe1571b634a</description></Placemark><Placemark xmlns="http://www.opengis.net/kml/2.2"><name><![CDATA[Charles Barker Residence (Address: 10834 - 125 Street)]]></name><Point><coordinates>-113.537814,53.55309</coordinates></Point><description>6f24915b-69e2-43c7-94ca-2ec1cc433cfd</description></Placemark><Placemark xmlns="http://www.opengis.net/kml/2.2"><name><![CDATA[Charles J. Carter Residence (Address: 10603 - 103 Street)]]></name><Point><coordinates>-113.497165,53.550012</coordinates></Point><description>8b6dc3ff-4df7-4925-a48f-1bf4d8433994</description></Placemark><Placemark xmlns="http://www.opengis.net/kml/2.2"><name><![CDATA[Childrens Shelter / Ross Flats (Address: 9540 - 101 Street)]]></name><Point><coordinates>-113.493941,53.531551</coordinates></Point><description>e381519f-c3f1-4f26-a2f1-07a6c30a8cec</description></Placemark><Placemark xmlns="http://www.opengis.net/kml/2.2"><name><![CDATA[Churchill Wire Centre (Address: 10003 - 102 Avenue)]]></name><Point><coordinates>-113.490928,53.543223</coordinates></Point><description>0bb5cd10-cf06-4595-9ed9-172aea77afa0</description></Placemark><Placemark xmlns="http://www.opengis.net/kml/2.2"><name><![CDATA[Connaught Armoury (Address: 10310 - 85 Avenue)]]></name><Point><coordinates>-113.495771,53.521186</coordinates></Point><description>4ef979c5-41b1-49f7-b142-64d504ee2ca9</description></Placemark><Placemark xmlns="http://www.opengis.net/kml/2.2"><name><![CDATA[Dame Eliza Chenier Residences (Address: 9926-9928 - 112 Street)]]></name><Point><coordinates>-113.514203,53.537751</coordinates></Point><description>dfc6d99d-5dc1-4593-9aac-0091b3c5dd5f</description></Placemark><Placemark xmlns="http://www.opengis.net/kml/2.2"><name><![CDATA[Dr Robert Wells Residence (Address: 10328 - Connaught Drive)]]></name><Point><coordinates>-113.543901,53.545409</coordinates></Point><description>6d5f050e-1aac-464f-aa36-4556643d614a</description></Placemark><Placemark xmlns="http://www.opengis.net/kml/2.2"><name><![CDATA[Dr. Terwilligar's Residence (Address: 10727 - 125 Street)]]></name><Point><coordinates>-113.537446,53.551504</coordinates></Point><description>18790cb6-43d5-4b1e-82db-c4520692a598</description></Placemark><Placemark xmlns="http://www.opengis.net/kml/2.2"><name><![CDATA[Edmonton Drill Hall / Prince Of Wales (Address: 10440 - 108 Avenue)]]></name><Point><coordinates>-113.500017,53.553133</coordinates></Point><description>0d07d3e8-cf72-41e4-8e81-bbef79c8ce0f</description></Placemark><Placemark xmlns="http://www.opengis.net/kml/2.2"><name><![CDATA[Edmonton Milling Company (Ritchie Mill) (Address: 10170 - Saskatchewan Drive)]]></name><Point><coordinates>-113.494401,53.52412</coordinates></Point><description>78d1609e-fd9c-47a8-970d-84e2e2ed8326</description></Placemark><Placemark xmlns="http://www.opengis.net/kml/2.2"><name><![CDATA[Ernest Brown Block / Brighton Block (Address: 9666-9674 - Jasper Avenue)]]></name><Point><coordinates>-113.484047,53.542842</coordinates></Point><description>f5f0f47e-17c2-4e35-b75d-feccb4c83f72</description></Placemark><Placemark xmlns="http://www.opengis.net/kml/2.2"><name><![CDATA[Farm House / Brick House (Address: 20450 - 34 Street)]]></name><Point><coordinates>-113.393752,53.667609</coordinates></Point><description>dae11001-944f-46b3-912d-ea520c11f2b3</description></Placemark><Placemark xmlns="http://www.opengis.net/kml/2.2"><name><![CDATA[Gem Theatre (Address: 9680-9686 - Jasper Avenue)]]></name><Point><coordinates>-113.484599,53.542653</coordinates></Point><description>b3f577f2-e611-44cd-82b7-635407d64f4b</description></Placemark><Placemark xmlns="http://www.opengis.net/kml/2.2"><name><![CDATA[George Durrand Residence (Address: 10417 - Saskatchewan Drive)]]></name><Point><coordinates>-113.498525,53.523249</coordinates></Point><description>ffd7341b-f9f2-435f-87b6-52e740cd1fff</description></Placemark><Placemark xmlns="http://www.opengis.net/kml/2.2"><name><![CDATA[Gibson Block (Address: 9604-9608 - Jasper Avenue)]]></name><Point><coordinates>-113.482414,53.54366</coordinates></Point><description>61046799-a85d-494d-8880-668c70ae3180</description></Placemark><Placemark xmlns="http://www.opengis.net/kml/2.2"><name><![CDATA[Goodridge Building (Address: 9696-9698 - Jasper Avenue)]]></name><Point><coordinates>-113.485228,53.542438</coordinates></Point><description>5d458435-8a20-4594-bfa4-e45113f3e4d8</description></Placemark><Placemark xmlns="http://www.opengis.net/kml/2.2"><name><![CDATA[HV Shaw Building (Address: 10229 - 105 Street)]]></name><Point><coordinates>-113.500846,53.543532</coordinates></Point><description>3fdb4e8b-ad76-48b0-b9bb-3048b76a5c07</description></Placemark><Placemark xmlns="http://www.opengis.net/kml/2.2"><name><![CDATA[Hagmann Block / Hotel Grand (Address: 10765 - 98 Street)]]></name><Point><coordinates>-113.491067,53.552988</coordinates></Point><description>1424fdff-fd56-43e0-981d-d40c80098e65</description></Placemark><Placemark xmlns="http://www.opengis.net/kml/2.2"><name><![CDATA[Hangar #14 (Address: 11410 - Kingsway Avenue)]]></name><Point><coordinates>-113.517857,53.565437</coordinates></Point><description>77063836-8b75-463d-8820-609c3b2e7bbc</description></Placemark><Placemark xmlns="http://www.opengis.net/kml/2.2"><name><![CDATA[Hecla Block (Address: 10141 - 95 Street)]]></name><Point><coordinates>-113.47824,53.544624</coordinates></Point><description>7a2ee28f-5e14-4a75-ab32-f9dcc9d7a4b8</description></Placemark><Placemark xmlns="http://www.opengis.net/kml/2.2"><name><![CDATA[High Level Bridge (Address: 109 Street between 98-89 Avenue)]]></name><Point><coordinates>-113.5108694,53.53066667</coordinates></Point><description>c1431adb-d913-40bf-b8cc-2e3a5d7acdb5</description></Placemark><Placemark xmlns="http://www.opengis.net/kml/2.2"><name><![CDATA[Hudson Bay Company Department Store (Address: 10230 - Jasper Avenue)]]></name><Point><coordinates>-113.496211,53.541071</coordinates></Point><description>c280cefe-9a07-45ae-a276-1017e7192115</description></Placemark><Placemark xmlns="http://www.opengis.net/kml/2.2"><name><![CDATA[Hudson Bay Company Stables (Address: 9722 - 102 Street)]]></name><Point><coordinates>-113.495694,53.534826</coordinates></Point><description>a71f96b2-4339-45b9-a549-97408eab977f</description></Placemark><Placemark xmlns="http://www.opengis.net/kml/2.2"><name><![CDATA[Hugh Duncan Residence (Address: 8520 - 104 Street)]]></name><Point><coordinates>-113.497863,53.521191</coordinates></Point><description>1a233a0a-e793-4f92-9cfa-bcf9d12078f0</description></Placemark><Placemark xmlns="http://www.opengis.net/kml/2.2"><name><![CDATA[Hull Block (Address: 10601-10607 - 97 Street)]]></name><Point><coordinates>-113.488709,53.550357</coordinates></Point><description>0d5ae194-ad1a-406d-806c-416d8075aa35</description></Placemark><Placemark xmlns="http://www.opengis.net/kml/2.2"><name><![CDATA[Hyndman House (Address: 10123 - 136 Street)]]></name><Point><coordinates>-113.556174,53.541766</coordinates></Point><description>30d15734-175e-478d-89cc-945f3f9f906e</description></Placemark><Placemark xmlns="http://www.opengis.net/kml/2.2"><name><![CDATA[Imperial Bank Of Canada (Address: 9990 - Jasper Avenue)]]></name><Point><coordinates>-113.48996,53.541348</coordinates></Point><description>1b9cef32-5dcf-460a-83d7-4d1e8133f961</description></Placemark><Placemark xmlns="http://www.opengis.net/kml/2.2"><name><![CDATA[Jasper Block (Address: 10514-10520 - Jasper Avenue)]]></name><Point><coordinates>-113.501498,53.541072</coordinates></Point><description>17dd77fe-7a2c-46a0-b9b9-1ba32f564f66</description></Placemark><Placemark xmlns="http://www.opengis.net/kml/2.2"><name><![CDATA[John McNeill Residence (Address: 11217 - 97 Street)]]></name><Point><coordinates>-113.491467,53.561435</coordinates></Point><description>3d555140-c9b4-4235-8931-3f276bb31935</description></Placemark><Placemark xmlns="http://www.opengis.net/kml/2.2"><name><![CDATA[John N. Lang Apartments (Address: 9908-9914 - 112 Street)]]></name><Point><coordinates>-113.514209,53.537519</coordinates></Point><description>2580aee4-3242-4b88-992d-4fcb3e335fae</description></Placemark><Placemark xmlns="http://www.opengis.net/kml/2.2"><name><![CDATA[John Walter House (Address: 9100 - Walterdale Hill)]]></name><Point><coordinates>-113.503616,53.526691</coordinates></Point><description>b122d0b0-2532-4c84-8c0b-91c78d813f1f</description></Placemark><Placemark xmlns="http://www.opengis.net/kml/2.2"><name><![CDATA[John Walter House (Address: 9100 - Walterdale Hill)]]></name><Point><coordinates>-113.503616,53.526691</coordinates></Point><description>7410d1ac-7aec-483e-bda3-cd8b8fc28baa</description></Placemark><Placemark xmlns="http://www.opengis.net/kml/2.2"><name><![CDATA[John Walter House (Address: 9100 - Walterdale Hill)]]></name><Point><coordinates>-113.503616,53.526691</coordinates></Point><description>52434b90-9dee-4acb-a0c8-6521f736ee70</description></Placemark><Placemark xmlns="http://www.opengis.net/kml/2.2"><name><![CDATA[Kingston Powell Building (Address: 10277 - 97 Street)]]></name><Point><coordinates>-113.486579,53.545474</coordinates></Point><description>2d3ebe71-1ea1-45ef-8e20-dcec98cf6823</description></Placemark><Placemark xmlns="http://www.opengis.net/kml/2.2"><name><![CDATA[Lambton Block (Address: 10135 - 97 Street)]]></name><Point><coordinates>-113.485658,53.543033</coordinates></Point><description>88b324ff-52f4-41e3-aeb7-18bc7e494a76</description></Placemark><Placemark xmlns="http://www.opengis.net/kml/2.2"><name><![CDATA[Lester Allyn House (Address: 9932 - 112 Street)]]></name><Point><coordinates>-113.514201,53.537828</coordinates></Point><description>06b2d1b8-6def-4a85-ac45-a67456b09090</description></Placemark><Placemark xmlns="http://www.opengis.net/kml/2.2"><name><![CDATA[Macdonald Hotel (Address: 10065 - 100 Street)]]></name><Point><coordinates>-113.489972,53.540421</coordinates></Point><description>b882e955-5c4f-458b-b36d-208919c584e7</description></Placemark><Placemark xmlns="http://www.opengis.net/kml/2.2"><name><![CDATA[Margaret Martin Residence (Address: 8324 - 106 Street)]]></name><Point><coordinates>-113.503604,53.519362</coordinates></Point><description>a03c59c1-eead-4179-b254-3a5327eb7ad7</description></Placemark><Placemark xmlns="http://www.opengis.net/kml/2.2"><name><![CDATA[McTaggart Residence (Address: 11530 - 95A Street)]]></name><Point><coordinates>-113.488814,53.566316</coordinates></Point><description>b16e5fca-6e2a-4ecf-a20f-68c99fdf33c8</description></Placemark><Placemark xmlns="http://www.opengis.net/kml/2.2"><name><![CDATA[Mcleod Block (Address: 10132-10136 - 100 Street)]]></name><Point><coordinates>-113.490767,53.541951</coordinates></Point><description>688bc46d-3282-46fb-b943-f11cf1fbc0ec</description></Placemark><Placemark xmlns="http://www.opengis.net/kml/2.2"><name><![CDATA[Metals Limited Building (Address: 10190 - 104 Street)]]></name><Point><coordinates>-113.499482,53.542643</coordinates></Point><description>7ff89335-1f36-4187-9ce3-873457aa83b8</description></Placemark><Placemark xmlns="http://www.opengis.net/kml/2.2"><name><![CDATA[Mill Creek Trestle Bridge (Address: 92 Street and 76 Avenue)]]></name><Point><coordinates>-113.4696694,53.46966944</coordinates></Point><description>42112bc2-ac6f-4900-816b-c77833c4689f</description></Placemark><Placemark xmlns="http://www.opengis.net/kml/2.2"><name><![CDATA[Molstad Residence (Address: 9633 - 95 Avenue)]]></name><Point><coordinates>-113.47706,53.531889</coordinates></Point><description>339b6ed1-d843-4803-b132-ca505520013a</description></Placemark><Placemark xmlns="http://www.opengis.net/kml/2.2"><name><![CDATA[North Telephone Exchange (Address: 10105 - 112 Avenue)]]></name><Point><coordinates>-113.493973,53.560917</coordinates></Point><description>447f0fdf-a8ee-4216-ac83-0f0fab79bbff</description></Placemark><Placemark xmlns="http://www.opengis.net/kml/2.2"><name><![CDATA[Oblats Maison Provinciale (Address: 9916 - 110 Street)]]></name><Point><coordinates>-113.510516,53.537622</coordinates></Point><description>b07d64ce-03ef-41d0-ab23-4860ef4b14cc</description></Placemark><Placemark xmlns="http://www.opengis.net/kml/2.2"><name><![CDATA[Orange Hall (Address: 10335 - 84 Avenue)]]></name><Point><coordinates>-113.496991,53.519784</coordinates></Point><description>33ad3e04-f34b-43ee-8fdc-75ddbf0050b9</description></Placemark><Placemark xmlns="http://www.opengis.net/kml/2.2"><name><![CDATA[Otto Reher Cottage (Address: 11845 - 52 Street)]]></name><Point><coordinates>-113.421394,53.571139</coordinates></Point><description>9eebde24-07ee-4a23-9798-e7117e7c0e23</description></Placemark><Placemark xmlns="http://www.opengis.net/kml/2.2"><name><![CDATA[Parkview Apartments (Address: 10612 - 97 Avenue)]]></name><Point><coordinates>-113.503067,53.534199</coordinates></Point><description>a77ca759-d652-45ba-838f-ae4393f3be8f</description></Placemark><Placemark xmlns="http://www.opengis.net/kml/2.2"><name><![CDATA[Pendennis Hotel / Lodge Hotel (Address: 9660-9664 - Jasper Avenue)]]></name><Point><coordinates>-113.483861,53.54292</coordinates></Point><description>55bb36f2-808f-4cb1-9f21-8ad3bc9ae6c0</description></Placemark><Placemark xmlns="http://www.opengis.net/kml/2.2"><name><![CDATA[Phillips Building (Address: 10169 - 104 Street)]]></name><Point><coordinates>-113.499026,53.54228</coordinates></Point><description>5609831e-db56-4a90-a31e-bb1dec301ba8</description></Placemark><Placemark xmlns="http://www.opengis.net/kml/2.2"><name><![CDATA[RGJ Smith Residence (Address: 9824 - 91 Avenue)]]></name><Point><coordinates>-113.483741,53.526586</coordinates></Point><description>b10dea48-07ac-47c3-a81f-0f817cef9909</description></Placemark><Placemark xmlns="http://www.opengis.net/kml/2.2"><name><![CDATA[Rehwinkel Parsonage (Address: 9608 - 110 Avenue)]]></name><Point><coordinates>-113.489334,53.557745</coordinates></Point><description>20e5a3ba-ee90-43aa-9a0a-cb0a57748968</description></Placemark><Placemark xmlns="http://www.opengis.net/kml/2.2"><name><![CDATA[Richard Foote Residence (Address: 9704 - 106 Street)]]></name><Point><coordinates>-113.503044,53.534318</coordinates></Point><description>d645e062-c053-435a-a999-0850d4738929</description></Placemark><Placemark xmlns="http://www.opengis.net/kml/2.2"><name><![CDATA[Richard Wallace Residence (Address: 10950 - 81 Street)]]></name><Point><coordinates>-113.465641,53.557915</coordinates></Point><description>5441014b-f60d-4bab-af26-585ece73dd63</description></Placemark><Placemark xmlns="http://www.opengis.net/kml/2.2"><name><![CDATA[Robertson Presbyterian Church (Address: 10203 - 123 Street)]]></name><Point><coordinates>-113.533891,53.543207</coordinates></Point><description>f0beb7f1-1cf1-4b94-ae5e-78d68c2fe114</description></Placemark><Placemark xmlns="http://www.opengis.net/kml/2.2"><name><![CDATA[Roy Gerolamy Residence (Address: 9823 - 91 Avenue)]]></name><Point><coordinates>-113.483688,53.526134</coordinates></Point><description>3850c64a-ecee-4b6b-9d0b-e65e712fd176</description></Placemark><Placemark xmlns="http://www.opengis.net/kml/2.2"><name><![CDATA[Sarah McLellan Residence (Address: 11135 - 84 Avenue)]]></name><Point><coordinates>-113.518964,53.519824</coordinates></Point><description>4cc53e1c-0788-4393-a60d-63d48e277d21</description></Placemark><Placemark xmlns="http://www.opengis.net/kml/2.2"><name><![CDATA[St Francis Of Assissi (Address: 6670 - 129 Avenue)]]></name><Point><coordinates>-113.444004,53.587857</coordinates></Point><description>c3288b81-c633-4024-9a5e-8df81e5300e6</description></Placemark><Placemark xmlns="http://www.opengis.net/kml/2.2"><name><![CDATA[St Joseph Auxillary Hospital (Address: 10722 - 82 Avenue)]]></name><Point><coordinates>-113.507151,53.518277</coordinates></Point><description>35056df9-33eb-49bc-8a35-62c0c9718386</description></Placemark><Placemark xmlns="http://www.opengis.net/kml/2.2"><name><![CDATA[Strathcona Hotel (Address: 10302 - 82 Avenue)]]></name><Point><coordinates>-113.495219,53.518366</coordinates></Point><description>fb2793e5-0c69-4c3e-b5ae-fa70879a4963</description></Placemark><Placemark xmlns="http://www.opengis.net/kml/2.2"><name><![CDATA[Strathcona Public Library (Address: 8331 - 104 Street)]]></name><Point><coordinates>-113.497295,53.519385</coordinates></Point><description>bbbf9404-a219-4913-a171-35850a496f9a</description></Placemark><Placemark xmlns="http://www.opengis.net/kml/2.2"><name><![CDATA[Thomas Scott Residence (Address: 9938 - 85 Avenue)]]></name><Point><coordinates>-113.487166,53.521079</coordinates></Point><description>0a3eeb20-66cf-4220-baa9-3582d62c3609</description></Placemark><Placemark xmlns="http://www.opengis.net/kml/2.2"><name><![CDATA[Trudel Residence (Address: 8134 - Jasper Avenue)]]></name><Point><coordinates>-113.465815,53.557124</coordinates></Point><description>edb9cff3-4a9f-40cd-9fab-2935fab1b826</description></Placemark><Placemark xmlns="http://www.opengis.net/kml/2.2"><name><![CDATA[Union Bank Of Canada Building (Address: 10053 - Jasper Avenue)]]></name><Point><coordinates>-113.492332,53.54083</coordinates></Point><description>3b236d9f-4eab-4f73-8446-a0c9f69e5ae1</description></Placemark><Placemark xmlns="http://www.opengis.net/kml/2.2"><name><![CDATA[Westminster Apartments (Address: 9955 - 114 Street)]]></name><Point><coordinates>-113.517392,53.538115</coordinates></Point><description>f5690b13-8e9d-4200-a320-702a5e06fd72</description></Placemark><Placemark xmlns="http://www.opengis.net/kml/2.2"><name><![CDATA[William Blakey Residence (Address: 13526 - 101 Avenue)]]></name><Point><coordinates>-113.555444,53.541387</coordinates></Point><description>751e2eb0-ac2e-4ce3-b6eb-089eb313049f</description></Placemark><Placemark xmlns="http://www.opengis.net/kml/2.2"><name><![CDATA[William O'Leary Residence (Address: 10544 - 126 Street)]]></name><Point><coordinates>-113.53967,53.548516</coordinates></Point><description>88b4d090-9278-44c6-93f4-98c6b52d203b</description></Placemark><Placemark xmlns="http://www.opengis.net/kml/2.2"><name><![CDATA[William Paskins Residence (Address: 10613 - 95 Street)]]></name><Point><coordinates>-113.482087,53.551702</coordinates></Point><description>7eb3f56b-59e8-4dab-8742-abfdef016c2d</description></Placemark></Document></kml>